$GPGSV,3,1,10,02,68,030,00,12,60,195,00,05,54,157,00,25,53,291,*71
$GPGSV,3,2,10,29,26,301,,06,23,056,,19,16,101,,31,05,318,*72
GPGSV$GPGSV,3,3,10,09,05,050,,24,00,210,*74
$GPRMC,190103.000,V,3954.5742,N,10504.4229,W,000.0,000.0,120818,,,N*6E
3954.5742,10504.4229|39.90957000,-105.07371500
$GPVTG,000.0,T,,M,000.0N,000.0,K,N*02
$GPGGA,190104.001,3954.5746,N,10504.4174,W,1,03,4.1,1641.5,M,-14.0,M,,0000*56
3954.5746|3954.5746|3954.5746|$GPGSA,2,02,12,05,,,,,,,,,,4.2,4.1,1.0*35
$GPGSV,3,1,10,02,68,030,37,12,60,195,37,05,54,157,40,25,53,291,*75
$GPGSV,3,2,10,29,26,301,,06,23,056,,19,16,101,00,09,05,050,00*76
$GPGSV,3,3,10,31,05,318,,24,00,210,"70
$GPRMC,190104.001,A,3954.5746,N,10504.4174,W,000.0,000.0,120818,,,A*7F
$GPVTG,000.0,T,,M,000.0,N,000.0,K,A*0D
$GPGGA,190105.001,3954.5744,N,10504.4300,W,1,03,4.1,1642.2,M,-14.0,M,,0000*50
3954.5744|3954.5744|3954.5744|$@PGSA,@,2,02,12,05,,,,,,,,,,4.1,4.1,0.7*30
$GPGSV,3,1,10,02,68,030,37,12,60,195,37,05,54,157,40,25,53,291,*75
$GPGSV,3,2,10,29,26,301,,06,23,056,,19,16,101,32,09,05,050,35*71
$GPGSV,3,3,10,31,05,318,,24,00,210,*70
$GPRMC,190105.001,A,3954.5744,N,10504.4300,W,000.0,000.0,120818,,,A*7D
3954.5744,10504.4300|39.90957333,-105.07383333
$GPVTG,0000,T,M,000.0,N,000.0,K,A*0D
$GPGGA,190106.001,3954.5754,N,10504.4242,W,1,05,2.8,1640.4,M,-14.0,M,,0000*58
3954.5754|3954.5754|3954.5754|$GPGsA,3,02,12,05,19,09,,,,,,,,4.1,2.8,3.0*3B
$GPGSV,3,1,10,02,68,030,37,12,60,195,37,05,54,157,41,25,53,291,*74
$GPGSV,3,2,10,29,26,301,,06,23,056,,19,16,101,32,09,05,050,35*71
$GPGSV,3,3,10,31,05,318,,24,00,210,*70
$GPRMC,190106.001,A,3954.5754,N,10504.4242,W,000.0,000.0,120818,,,A*78
3954.5754,10504.4242|39.90959000,-105.07373666
$GPVTG,000.0,T,,M,000.0,N,000.0,K,A"0D$GPGGA,190107.001,3954.5762,N,10504.4281,W,1,05,2.8,1638.1,M,-14.0,M,,0000*59
3954.5762|3954.5762|3954.5762|$GPG,⸮,3,02,12,05,19,09,,,,,,,,4.1,2.8,3.0*3B
$GPGSV,3,1,10,02,68,030,37,12,60,195,37,05,54,157,41,25,53,291,00*74
$GPGSV,3,2,10,29,26,301,00,06,23,0=6,00,19,16,101,32,09,05,050,36*72
$GPGSV,3,3,10,31,05,318,00,24,00,210,*70
$GPRMC,190107.001,A,3954.5762,N,10504.4281,W,000.0,000.0,120818,,,A*73
3954.5762,10504.4281|39.90960333,-105.07380166
$GPVTG,000.0,T,,A,000.0,N,000.0,K,A*0D
$GPGGA,190108.001,3954.5756,N,10504.4296,W,1,05,2.8,1635.8,M,-14.0,M,,0000*53
3954.5756|3954.5756|3954.5756|$GPGSA,A,3,02,12,05,19,09,,,,,,,,4.1,2.8,3.0*3B
$GPGSV,3,1,10,02,68,030,37,12,60,195,37,05,54,157,41,25,53,291,22*74
$GPGSV,3,2,10,29,26,301,00,06,23,056,14,19,16,101,33,09,05,050,35*75
$GPGSV,3,3,10,31,05,318,26,24,00,210,*74
$GPRMC,190108.001,A,3954.5756,N,10504.4296,W,000.0,000.0,120818,,,A*7D
3954.5756,10504.4296|39.90959333,-105.07382666
$GPVTG,000.0,T,,M,000.0,N,000.0,K,A*0D
$GPGGA,190109.001,3954.5752,N,10504.4278,W,1,07,1.4,1634.5,M,-14.0,M,,0000*57
⸮$G3954.5752|3954.5752|3954.5752|PGSA,A,3,02,12,05,19,09,25,31,,,,,,2.0,1.4,1.5*31
$GPGSV,3,1,10,02,68,030,37,12,60,195,36,05,54,157,40,2,53,291,22*74
$GPGSV,3,2,10,29,26,301,00,06,23,056,12,19,16,101,32,09,05,050,35*72
$GPGSV,3,3,10,31,05,318,25,24,00,210,*77
$GPRMC,190109.001,A,3954.5752,N,10104.4278,W,000.0,000.0,120818,,,A*78
3954.5752,10104.4278|39.90958666,-101.07379666
$GPVTG,000.0,T,,M,000.0,N,000.0,K,A*0D
$GPGGA,190110.001,3954.5754,N,10504.4274,W,1,07,1.4,1633.9,M,-14.0,M,,0000*5E
3954.5754|3954.5754|3954.5754|$GPGSA,A,3,02,12,05,19,09,25,31,,,,,,2.0,1.4,1.5*31
$GPGSV,3,1,10,02,68,030,38,12,60,195,37,05,54,157,40,25,53,291,23*7B
$GPGSV,3,2,10,29,26,301,00,06,23,056,12,19,16,101,33,09,05,050,36*70
$GPGSV,3,3,10,31,0,318,25,24,00,210,*77
$GPRMC,190110.001,A,3954.5754,N,10504.4274,W,003.0,279.2,120818,,,A*77
3954.5754,10504.4274|39.90959000,-105.07379000
$GPVTG,279.2,T,,A,003.0,N,005.6,K,A*03
$GPGGA,190111.001,3954.5751,N,10504.4259,W,1,07,1.4,1633.9,M,-14.0,M,,0000*55
3954.5751|3954.5751|3954.5751|⸮GP⸮SA,A,3,02,12,05,19,09,25,31,,,,,,2.0,1.4,1.5*31
$GPGSV,3,1,10,02,68,030,37,12,60,195,39,05,54,157,40,25,53,291,23*7A
$GPGSV,3,2,10,29,26,301,10,06,23,056,12,19,16,101,33,09,05,050,36*71
$GPGSV,3,3,10,31,05,318,25,24,00,210,*77
$GPRMC,190111.001,A,3954.5751,N,10504.4259,W,000.0,279.2,120818,,,A*7F
3954.5751,10504.4259|39.90958500,-105.07376500
$GPVTG,27?.2T,,M,000.0,N,000.0,K,A*03
$GPGGA,190112.001,3954.5749,N,10504.4240,W,1,07,1.4,1634.9,M,-14.0,M,,0000*50
3954.5749|3954.5749|3954.5749|$GPGS@,A,3,02,12,05,19,09,25,31,,,,,,2.0,1.4,1.5*31
$GPGSV,3,1,10,02,68,030,37,12,60,195,38,05,54,157,40,25,53,291,23*7B
$GPGSV,3,2,10,29,26,301,09,06,23,056,12,19,16,101,33,09,05,050,36*79
$GPGSV,3,3,10,31,05,318,25,24,00,210,*77
$GPRMC,190112.001,A,3954.5749,N,10504.4240,W,000.0,279.2,120818,,,A*7D
3954.5749,10504.4240|39.90958166,-105.07373333
$GPVT@,279.2,T,,M,000.0,N,000.0,K,A*03
$GPGGA,190113.001,3954.5747,N,10504.4225,W,1,07,1.4,1636.4,M,-14.0,M,,0000*53
3954.5747|3954.5747|3954.5747|$GPGsA,A,3,02,12,05,19,09,25,31,,,,,,2.0,1.4,1.5*31
$GPGSV,3,1,10,02,68,030,38,12,60,195,38,05,54,157,40,2=,53,291,22*75
$GPGSV,3,2,10,29,26,301,08,06,23,056,13,19,16,101,34,09,05,050,36*7E
$GPGSV,3,3,10,31,05,318,26,24,00,210,*74
$GPRMC,190113.001,A,3954.5747,N,10504.4225,W,000.0,279.2,120818,,,A*71
3954.5747,10504.4225|39.90957833,-105.07370833
$GPVT@,27?.2,\,,⸮,000.0,N,000.0,K,A*03
$GPGGA,190114.001,3954.5747,N,10504.4206,W,1,07,1.4,1638.1,M,-14.0,M,,0000*5E
3954.5747|3954.5747|3954.5747|$GPGSA,A,3,02,12,05,19,09,25,31,,,,,,2.0,1.4,1.5*31
$GPGSV,3,1,10,02,68,030,38,12,60,195,38,05,54,157,40,25,53,291,22*75
$GPGSV,3,2,10,29,26,301,09,06,23,056,12,19,16,101,34,09,05,050,37*7F
$GPGSV,3,3,10,31,05,318,25,24,00,210,*77
$GPRMC,190114.001,A,3954.5747,N,10504.4206,W,001⸮5,274.2,120818,,,A*7E
3954.5747,10504.4206|39.90957833,-105.07367666
$GPVTG,274.2,T,,M,001.5,N,002.7,K,A*0F
$GPGGA,190115.001,3954.5747,N,10504.4206,W,1,07,1.4,?639.5,M,-14.0,M,,0000*5A
3954.5747|3954.5747|3954.5747|$GPGSA,A,3,02,12,05,19,09,25,31,,,,,,2.0,1.4,1.5*31
$GPGSV,3,1,10,02,68,030,38,12,60,197,38,0=,54,157,40,25,53,291,22*75
$GPGSV,3,2,10,29,26,301,09,06,23,056,11,19,16,101,33,09,05,050,37*7B
$GPGSV,3,3,10,31,05,318,26,24,00,210,*74
$GPRMC,190115.001,A,3954.5747,N,10504.4206,W,000.0,274.2,120818,,,A*7B
3954.5747,10504.4206|39.90957833,-105.07367666
$GPVTG,274.2,T,,M,000.0,N,000.0,K,A*0E
$GPGGA,190116.001,3954.5747,N,10=04.4206,W,1,07,1.4,1640.6,M,-14.0,M,,0000*54
3954.5747|3954.5747|3954.5747|$GPGSA,A,3,02,12,05,19,09,25,31,,⸮,,,2.0,1.4,1.=*31
$GPGSV,3,1,10,02,68,030,37,12,60,194,37,05,54,177,39,25,53,291,22*7B
$GPGSV,3,2,10,29,26,301,09,06,23,056,10,19,16,101,34,09,05,050,37*7D
$GPGSV,3,3,10,31,05,318,26,24,00,210,*74
$GPRMC,190116.001,A,3954.5747,N,10504.4206,W,000.0,274.2,120818,,,A*78
3954.5747,10504.4206|39.90957833,-105.07367666
$GPVTG,274.2,T,,M,000.0,N,000.0,K,A*0E
$GPGGA,190117.001,3954.5748,N,10504.4205,W,1,07,1.4,1642.0,M,-14.0,M,,0000*5D
3954.5748|3954.5748|3954.5748|$GPGPA,3,02,12,05,19,09,25,31,,,,,,2.0,1.4,1.5*31
$GPGSV,3,1,10,02,68,030,37,12,60,195,37,05,54,157,39,25,53,291,21*78
$GPGSV,3,2,10,29,26,301,08,06,23,056,10,19,16,101,33,09,05,050,36*7A
$GPGSV,3,3,10,31,05,318,25,24,00,210,*77
$GPRMC,190117.001,A,3954.5748,N,10504.4205,W,000.9,278.4,120818,,,A*76
3954.5748,10504.4205|39.90958000,-105.07367500
$GPVTG,278.4,T,,M,000.9,N,001.6,K,A*0A
$GPGGA,190118.001,3954.5746,N,10504.4206,W,1,07,1.4,1643.2,M,-14.0,M,,0000*5C
3954.5746|3954.5746|3954.5746|$GP⸮SA,A,3,02,12,05,19,09,25,31,,,,,,2.0,1.4,1.5*31
$GPGSV,3,1,10,02,68,030,37,12,60,195,38,05,54,157,40,25,53,29?,21*7?
$GPGSV,3,2,10,29,26,301,11,06,23,056,,19,16,101,33,09,05,050,37*72
$GPGSV,3,3,10,31,05,318,26,24,00,210,"74
$GPRMC,190118.001,A,3954.5746,N,10504.4206,W,000.0,278.4,120818,,,A*7D
3954.5746,10504.4206|39.90957666,-105.07367666
$GPVTG,278.4,T,,A,000.0,N,000⸮0,K,A*04
$GPGGA,190119.001,3954.5746,N,10504.4203,W,1,07,1.4,1644.2,M,-14.0,O,,0000*=F
3954.5746|3954.5746|3954.5746|$GPGSA,A,3,02,12,05,19,09,25,31,,,,,,2.0,1.4,1.5*31
$GPGSV,3,1,10,02,68,030,37,12,60,195,37,05,54,157,39,25,53,291,20*79
$GPGSV,3,2,10,29,26,301,12,06,23,056,00,19,16,101,33,09,05,050,37*71
$GPGSV,3,3,?0,31,05,318,26,24,00,210,*74
$GPRMC,190119.00?,A,3944.5746,N,10504.4203,W,000.0,278.4,120818,,,A*79
3944.5746,10504.4203|39.74291000,-105.07367166
$GPVTG,278.4,T,,M,000.0,N,000.0,K,A*04$GPGGA,190120.001,3954.5743,N,10504.4200,W,1,06,1.4,1645.1,M,-14.0,M,,0000*50
3954.5743|3954.5743|3954.5743|$GPGSA,A,3,02,12,05,?9,09,31,,,,,,,2.1,1.4,1.6*34
$GPGSV,3,1,10,02,68,030,37,12,60,195,37,05,54,157,39,25,73,291,19*73
$GPGSV,3,2,10,29,26,301,12,06,23,076,00,19,16,101,33,09,05,050,37*71
$GPGSV,3,3,10,31,05,318,26,24,00,210,*74
$GPRMC,190120.001,A,3954.5743,N,10504.4200,W,001.1,272.4,120818,,,A*7F
3954.5743,10504.4200|39.90957166,-105.07366666
$⸮PVTG,272.4,T,M,001.1,N,002.1,K,A*0D
$GPGGA,190121.001,3954.5731,N,10504.4194,W,1,06,1.4,1645.9,M,-14.0,M,,0000*52
3954.5731|3954.5731|3954.5731|$GPGSA,A,3,02,12,05,19,09,31,,,,,,,2.1,1.4,1.6*34
$GPGSV,3,1,10,02,68,030,37,12,60,195,37,05,54,157,39,25,53,291,18*72
$GPGSV,3,2,10,29,26,301,10,06,23,056,00,19,16,101,33,09,05,050,37*73
$GPGSV,3,3,10,31,05,318,26,24,00,210,*74
$GPRMC,190121.001,A,3954.1731,N,10504.4194,W,000.0,272.4,120818,,,A*75
3954.1731,10504.4194|39.90288500,-105.07365666
$GPVTG,272.4,T,,M,000.0,N,000.0,K,A*0E
$GPGGA,190122.001,3954.5724,N,10504.4184,W,1,06,1.4,1646.8,M,-14.0,M,,0000*56
3954.5724|3954.5724|3954.5724|$GPGSA,3,02,12,05,19,09,31,,,,,,,2.1,1.4,1.6*34
$GPGSV,3,1,10,02,68,030,37,12,60,195,37,05,54,157,39,25,53,291,17*7D
$GPGSV,3,2,10,29,26,301,,06,23,056,,?9,16,101,33,09,05,050,37*72
$GPGSV,3,3,10,31,05,318,25,24,00,210,*77
$GPRMC,190122.001,A,3954.5724,N,10504.4184,W,000.0,272.4,120818,,,A*73
3954.5724,10504.4184|39.90954000,-105.07364000
$GPVT⸮,272.4,T,,A,000.0,N,000.0,K,A*0E
$GPGGA,190123.001,3954.5723,N,10504.4177,W,1,06,1.4,1647.8,M,-14.0,M,,0000*5D
3954.5723|3954.5723|3954.5723|$@PGSA,A,3,02,12,05,19,09,31,,,,,,,2.1,1.4,1.6*34
$GPGSV,3,1,10,02,68,030,37,12,60,19=,37,05,54,157,39,25,53,291,00*7B
$GPGSV,3,2,10,29,26,301,00,06,23,056,00,19,16,101,33,09,05,050,37*72
$GPGSV,3,3,10,31,05,318,26,24,00,210,*74
$GPRMC,190123.001,A,3954.5723,N,10504.4177,W,000.0,272.4,120818,,,A*79
3954.5723,10504.4177|39.90953833,-105.07362833
$GPVTG,272.4,T,,M,000.0,N,000.0,K,A*0E
$GPGGA,190124.001,3954.5725,N,10504.4173,W,1,06,?.4,1648.6,M,-14.0,M,,0000*59
3954.5725|3954.5725|3954.5725|$GPGSA,⸮,3,02,12,05,19,09,31,,,,,,,2.1,1.4,1.6*34$GPGSV,3,1,10,02,68,030,38,12,60,195,38,05,54,157,39,25,53,291,00*7B
$GPGSV,3,2,10,29,26,301,21,06,23,056,00,19,16,101,34,09,05,050,38*79
$GPGSV,3,3,10,31,05,318,26,24,00,210,*74
$GPRMC,190124.001,A,3954.5725,N,10504.4173,W,000.0,272.4,120818,,,A*7C
3954.5725,10504.4173|39.90954166,-105.07362166
$GPVTG,272.4,T,,M,000.0,N,000.0,K,A*0E
$GPGGA,190125.001,3954.5715,N,10504.4174,W,1,07,1.3,1649.3,M,-14.0,M,,0000*5E
3954.5715|3954.5715|3954.5715|$GPGSA,A,3,02,12,05,19,09,29,31,,,,,,2.1,1.3,1.6*38
$GPGSV,3,1,10,02,68,030,38,12,60,195,38,05,54,157,38,25,53,291,00*7A
$GPGSV,3,2,10,29,26,301,22,06,23,056,00,19,16,101,33,09,05,050,38*7D
$GPGSV,3,3,10,31,05,318,27,24,00,210,*75
$GPRMC,190125.001,A,3954.5715,N,10504.4174,W,000.0,272.4,120818,,,A*79
3954.5715,10504.4174|39.90952500,-105.07362333
$GPVTG,272.4,T,,M,000.0,N,000.0,K,A*0E
$GPGGA,190126.001,394.5712,N,10504.4172,W,1,07,1.3,1649.7,M,-14.0,M,,0000*58
394.5712|394.5712|394.5712|$GPGSA,3,02,12,05,19,09,29,31,,,,,,2.1,1.3,1.6*38
$GPGSV,3,1,10,02,68,030,38,12,60,195,37,05,54,157,38,25,53,291,*75
$GPGSV,3,2,10,29,26,30?,22,06,23,056,,19,16,101,33,09,05,050,38*7D
$GPGSV,3,3,10,31,05,318,27,24,00,210,*75
$GPRMC,190126.001,A,3954.5712,N,10504.4172,W,000.0,272.4,120818,,,A*7B
3954.5712,10504.4172|39.90952000,-105.07362000
$GPVTG,272.4,T,,M,000.0,N,000.0,K,A*0E
$GPGGA,190127.001,3954.5706,N,10504.4169,W,1,07,1.3,1649.9,M,-14.0,M,,0000*58
3954.5706|3954.5706|3954.5706|$GPGSA,A,3,02,12,05,19,09,29,31,,,,,,2.1,1.3,1.6*38
$GPGSV,3,1,10,02,68,030,38,12,60,195,38,05,54,157,38,25,53,291,00*7A
$GPGSV,3,2,10,29,26,301,23,06,23,056,00,19,16,101,34,09,05,050,38*7B
$GPGSV,3,3,10,31,05,318,27,24,00,210,*75
$GPRMC,190127⸮001,A,3954.5706,N,10504.4169,W,000.0,272.4,120818,,,A*75
3954.5706,10504.4169|39.90951000,-105.07361500
$GPVTG,272.4,T,,M,000.0,N,000.0,K,A*0E
$GPGGA,190128.001,3954.5706,N,10504.4167,W,1,07,1.3,1650.0,M,-14.0,M,,0000*58
3954.5706|3954.5706|3954.5706|$GPGPA,@,3,02,12,05,19,09,29,31,,,,,,2.1,1.3,1.6*38
$GPGSV,3,1,10,02,68,030,37,12,60,195,37,05,54,157,38,25,53,291,00*7A
$GPGSV,3,2,10,29,26,301,23,06,23,056,00,19,16,101,33,09,05,050,38*7C
$GPGSV,3,3,10,31,05,318,28,24,00,210,*7A
$GPRMC,190128.001,A,3954.5706,N,10504.4167,W,000.0,272.4,120818,,,A*74
3954.5706,10504.4167|39.90951000,-105.07361166
$GPVTG,272.4,T,,M,000.0,N,000.0,K,A*0E
$GPGGA,190129.001,3954.5702,N,10504.4173,W,1,07,1.3,1649.9,M,/14.0,M,,0000*59
3954.5702|3954.5702|3954.5702|$GpGSA,A,3,02,12,05,19,09,29,31,,,,,,2.1,1.3,1.6*38
$GPGSV,3,1,10,02,68,030,37,12,60,195,37,05,54,157,38,25,53,2?1,00*7A
$GPGSV,3,2,10,29,26,301,23,06,23,056,00,19,16,101,33,09,05,050,37*73
$GPGSV,3,3,10,31,05,318,28,24,00,210,*7A
$GPRMC,190129.001,A,3954.5702,N,10504.4173,W,000.0,272.4,120818,,,A*74
3954.5702,10504.4173|39.90950333,-105.07362166
$GPFT⸮,272.4,T,,M,000.0,N,000.0,K,A*0E
$GPGGA,190130.001,3954.569,N,10504.4177,W,1,07,1.3,1649.8,M,-14.0,M,,0000:5B
3954.569|3954.569|3954.569|$GPG,3,02,12,05,19,09,29,31,,,,,,2.1,1.3,1.6*38
$GPGSV,3,1,10,02,68,030,38,12,60,195,38,05,54,157,38,25,53,291,*7A
$GPGSV,3,2,10,29,26,301,23,06,23,056,14,19,16,101,33,09,07,050,37*76
$GPGSV,3,3,10,31,05,318,28,24,00,210,*7A
$GPRMC,190130.001,A,394.5695,N,10504.4177,W,000.0,272.4,120818,,,A*77
394.5695,10504.4177|39.06777049,-105.07362833
$GPVTG,272.4,T,,M,000.0,N,000.0,K,A*0E
$GPGGA,190131.001,3954.5695,N,10504.4177,W,1,07,1.3,1649.8,M,-14.0,M,,0000*5A
3954.5695|3954.5695|3954.5695|$GP@SA,A,3,02,12,05,19,09,29,31,,,,,,2.1,1.3,1.6*38
$GPGSV,3,1,10,02,68,030,37,12,60,195,37,05,54,157,37,25,53,291,00*75
$GPGSV,3,2,10,29,26,301,23,06,23,056,13,19,16,101,33,09,05,050,37*71
$GPGSV,3,3,10,31,05,318,28,24,00,210,*7A
$GPRMC,190131.001,A,3954.5695,N,10504.4177,W,000.0,272.4,120818,,,A*76
3954.5695,10504.4177|39.90949166,-105.07362833
$GPVTG,272.4,T,,M,000.0,N,000.0,K,A*0E
$GPGGA,190132.001,3954.5695,N,10504.4177,W,1,07,1.3,1649.8,M,-14.0,M,,0000*59
3954.5695|3954.5695|3954.5695|$GPGSA,A,3,02,12,05,19,09,29,31,,,,,,2.1,1.3,1.6*38
$GPGSV,3,1,10,02,68,030,37,12,60,195,38,05,54,157,37,25,53,291,11*7A
$GPGSV,3,2,10,29,26,301,22,06,23,056,12,19,16,101,33,09,05,050,37*71
$GPGSV,3,3,10,31,05,318,2724,00,210,*75
$GPRMC,190132.001,A,3954.5695,N,10504.4177,W,000.0,272.4,120818,,,A*75
⸮$GPVTG,273954.5695,10504.4177|39.90949166,-105.07362833
2.4,T,,M,000.0,N,000.0,K,A*0E
$GPGGA,190133.001,3?54.5695,N,10504.4177,W,1,07,1.3,1649.8,M,-14.0,M,,0000:58
3?54.5695|3?54.5695|3?54.5695|$GP@SA,A,3,02,12,05,19,09,29,31,,,,,,2.1,1.3,1.6*38
$GPGSV,3,1,10,02,68,030,37,12,60,195,37,05,54,157,38,25,53,291,14*7F
$GPGSV,3,2,10,29,26,301,22,06,23,056,12,19,16,101,33,09,05,050,37*71
$GPGSV,3,3,10,31,05,318,27,24,00,210,*75
$GPRMC,190133.001,A,3954.5695,N,10504.4177,W,000.0,272.4,120818,,,A*74
3954.5695,10504.4177|39.90949166,-105.07362833
$GPVTG,272.4,T,,M,000.0,N,000.0,K,A*0E
$GPGGA,190134.001,3954.7687,N,10504.4199,W,1,08,1.3,1648.3,M,-14.0,M,,0000*59
3954.7687|3954.7687|3954.7687|$GPGSA,A,3,02,12,05,19,09,25,29,31,,,,,2.0,1.3,1.5*3D
$GPGSV,3,1,10,02,68,030,38,12,60,195,36,05,54,157,38,25,53,291,22*74
$GPGSV,3,2⸮10,29,26,301,26,06,23,056,12,19,16,101,33,09,05,050,37*75
$GPGSV,3,3,10,31,05,318,29,24,00,210,*7B
$GPRMC,190134.001,A,3954.5687,N,10504.419?,W,000.0,272.4,120818,,,A*70
3954.5687,10504.419?|39.90947833,-105.07367500
$GPVTG,272.4,T,,O,000.0,N,000.0,K,A*0E
